stop_id,stop_code,stop_name,stop_lat,stop_lon
59002,02,Uniwersytet,53.0222360096332,18.5658994317055
46802,02,Szosa Okrężna,53.019045,18.566613
06602,02,Aula UMK,53.017413,18.57064
01502,02,Reja,53.0145734720287,18.5714998841286
00604,04,Sztuki Piękne,53.0139731905103,18.5830011963844
09501,01,Kraszewskiego,53.013913,18.592561
18206,06,Dworzec Autobusowy,53.0154383791029,18.6037319898605
33602,02,Sąd Rejonowy,53.019834,18.613418
06902,02,Kościuszki,53.02466,18.611652
64202,02,Sczanieckiego,53.028148,18.611261
07102,02,Kozacka,53.032035,18.610962
42102,02,Wielki Rów,53.034484,18.612632
22401,01,Polna,53.037742,18.613613
22501,01,Batorego,53.036743,18.622699
22801,01,Dębowa Góra,53.0355958063998,18.6312729120255
12203,03,Kanałowa,53.037643,18.637366
02901,01,Fort IV,53.039498,18.632841
41001,01,Mazowiecka,53.042666,18.626401
47700,00,Mazowiecka - Pętla,53.0451348330896,18.6260104179382
12904,04,Kolankowskiego,53.0286325165866,18.6918653547764
12802,02,Witosa,53.025673,18.687454
11804,04,Ligi Polskiej,53.0227845493023,18.6880069971085
12004,04,Wyszyńskiego,53.023404,18.682113
12102,02,Ślaskiego,53.023734,18.675865
06102,02,Przybyłów,53.028931,18.672725
05204,04,Bukowa,53.037166,18.673292
05004,04,Elana B,53.037212,18.668504
04503,03,Elana A,53.037148965067,18.6610400676727
47002,02,Przychodnia,53.0361715944875,18.6563086509705
66605,05,Tofama,53.0342522709612,18.652800321579
66001,01,Chrobrego,53.031772,18.628806
66801,01,Urząd Celny,53.030879,18.623903
64003,03,Sczanieckiego,53.027554,18.610015
63801,01,Popiela,53.026257,18.600257
28701,01,Wybickiego,53.024293,18.591914
79207,07,Bema,53.0208831841968,18.5955069959164
63101,01,Arena Toruń,53.018825,18.591952
26402,02,Fałata,53.0152778239694,18.5811839997768
64301,01,Od Nowa,53.0181346479156,18.5786325484514
06501,01,Akademiki,53.0174654371297,18.5741318017244
06701,01,Aula UMK,53.017968052108,18.5694278776646
46901,01,Szosa Okrężna,53.0195936447309,18.5656104236841
59001,01,Uniwersytet,53.022917,18.565944
42902,02,Czerniewice,52.9834543372707,18.6848795413971
43002,02,Zdrojowa,52.9779119463074,18.683232665062
43102,02,Matysiaków,52.975972,18.676083
50702,02,Solankowa,52.98253,18.67015
43201,01,Włocławska,52.989642,18.663921
17502,02,Ceramika,52.991971,18.647164
66402,02,Zimowa,52.992123,18.641304
17302,02,Stawki Południowe,52.992236,18.636496
17102,02,Stawki,52.9945531303548,18.6280488967896
07801,01,Plebiscytowa,52.9962256135843,18.6238431930542
07901,01,Kniaziewicza,52.99515045323,18.6182856559753
16902,02,Strzałowa,53.000327,18.62162
21204,04,Dworzec Główny,52.999856,18.615782
20904,04,Plac Armii Krajowej,52.998495,18.605744
00101,01,Plac Rapackiego,53.0103261394539,18.5992741584778
09602,02,Kraszewskiego,53.014239,18.59266
31102,02,Od Nowa,53.0190317532642,18.5821589827538
30902,02,Św. Józefa,53.022427,18.584022
35802,02,Szpital Bielany,53.027555,18.585507
35902,02,Boboli,53.028269,18.593491
36102,02,Lecha,53.0284357151316,18.5996013879776
13804,04,Koniuchy,53.033716780584,18.5997542738914
20603,03,Plac Św. Katarzyny,53.0133761280288,18.6123767495155
33208,08,Wały Gen. Sikorskiego,53.0129985220872,18.6037386953831
00202,02,Plac Rapackiego,53.0101679860201,18.5992915928364
90305,05,Plac Armii Krajowej,52.9986535048495,18.6037427186966
90501,01,Wiślana,52.996232070923,18.5891622304916
91101,01,Kluczyki,52.9934666272945,18.5775026679039
91401,01,Zagrodowa,52.9915760790963,18.5662454366684
99301,01,Mała Nieszawka - Szkoła,52.9902392452808,18.5469898581505
99303,03,Mała Nieszawka - Stadion,52.9907139228951,18.5322725772858
99305,05,Mała Nieszawka - Kościół,52.9930936905219,18.5224503278732
99307,07,Wielka Nieszawka - Urząd Gminy,52.996332159549,18.5095810890198
99309,09,Wielka Nieszawka - Aqua Park,52.9985921635331,18.5052895545959
99311,11,Wielka Nieszawka - RSP,52.9981595433535,18.4957730770111
99313,13,Wielka Nieszawka - Wiślana,53.0006841760742,18.4804254770279
99340,40,Cierpice - Ogrodowa II,52.9944304359846,18.4803074598312
99338,38,Cierpice - Ogrodowa,52.9877721293105,18.4829360246658
99336,36,Cierpice - Szkoła,52.9864384071556,18.4866079688072
99334,34,Cierpiszewo - Leśna,52.9824898799171,18.4985297173262
99332,32,Cierpiszewo,52.9797142703267,18.4997481107712
99330,30,Cierpice - Pętla,52.9839080971166,18.4860420227051
99328,28,Cierpice - Andrewex,52.9860040504942,18.4721508622169
99326,26,Cierpice - Nadleśnictwo,52.9865256009032,18.4649813175201
99324,24,Cierpice II,52.9879448966012,18.4526431560516
99322,22,Jarki,52.9894174271448,18.4452348947525
99320,20,Kąkol - Wiadukt,52.9939977741077,18.4473860263824
99318,18,Kąkol,52.9929992449841,18.4568193554878
28202,02,Aleja Solidarności,53.013623022435,18.6030131578445
25101,01,Przy Kaszowniku,53.0170326026853,18.6146512627602
02804,04,Garbaty Mostek,53.0195948548266,18.6227434873581
03504,04,Dworzec Wschodni,53.0251536765482,18.634067773819
34504,04,Wschodnia,53.02865,18.643673
26101,01,Donimirskiego,53.0292616299683,18.6521458625793
17901,01,Rubinkowo Centrum,53.02842,18.657672
05801,01,Manhattan,53.0277017345724,18.6670964956284
06001,01,Przybyłów,53.028643,18.672823
16601,01,Rubinkowo P&R,53.0265983205155,18.6803761124611
49701,01,Kolankowskiego,53.029373,18.693768
37901,01,Kusocińskiego,53.031124,18.70206
49901,01,Słupska,53.0321231734953,18.7070882320404
38101,01,Odległa,53.035566,18.722775
99001,01,Lubicz Dolny - Lipowa,53.031859,18.73882
99003,03,Lubicz Dolny - Kolejowa,53.031455,18.744744
99004,04,Lubicz Dolny - Urząd Gminy,53.030467,18.752563
99005,05,Lubicz Dolny - DK10,53.0308263080717,18.7595307826996
99007,07,Lubicz Górny - Bankowa,53.0255644002378,18.77044117097
99009,09,Lubicz Górny - Osiedle,53.0239687258649,18.7653136253357
47701,01,Mazowiecka - Pętla,53.0453984769705,18.625869601965
03102,02,Mazowiecka,53.0426805294979,18.6261177062988
03002,02,Fort IV,53.0395132715787,18.6325281858444
12402,02,Kociewska,53.0423580087828,18.6366319656372
12502,02,Kanałowa,53.036777,18.636499
02703,03,Dębowa Góra,53.0345917877707,18.6296086013317
55802,02,Towarowa,53.0328893380999,18.626874089241
56202,02,Zaułek Dworcowy,53.02887,18.62372
54201,01,Młyn Wiedzy,53.0251520632951,18.6278101801872
30504,04,Ślaskiego,53.0233895482014,18.6760041117668
10803,03,Wyszyńskiego,53.0228394028855,18.6834874749184
11003,03,Ligi Polskiej,53.022751,18.690547
11503,03,Kosynierów Kościuszkowskich,53.024119,18.69593
11401,01,Olimpijska P&R,53.0263333517529,18.7021241337061
58903,03,Szosa Okrężna,53.0195851740596,18.5657800734043
58704,04,Aula UMK,53.0179636149227,18.5696055740118
58504,04,Akademiki,53.0175215076301,18.5742484778166
58304,04,Od Nowa,53.0182060459219,18.5786506533623
59104,04,Fałata,53.016481,18.580257
00501,01,Sztuki Piękne,53.013829,18.581098
09303,03,Kraszewskiego,53.0141071250136,18.5919517278671
58003,03,Osiedle Młodych,53.0138328008859,18.5972195863724
33101,01,Wały Gen. Sikorskiego,53.012537,18.602588
71701,01,Heweliusza,53.0546443427309,18.5978499054909
71503,03,Strobanda,53.0538688916189,18.6031472682953
71303,03,Grasera,53.0510652211683,18.6039733886719
71103,03,Hubego,53.0470899519479,18.6036756634712
70903,03,Freytaga,53.0440383152456,18.6014440655708
70705,05,Wiśniowieckiego,53.0415460521988,18.5995195806026
70505,05,Elektryczna,53.0392520107917,18.5996925830841
70307,07,Koniuchy,53.0336716184409,18.5999621450901
46201,01,Długa,53.0317263755288,18.5959079861641
70105,05,Żwirki i Wigury,53.0285514570797,18.5908473283052
69905,05,Wybickiego,53.0253545260927,18.5915748775005
69703,03,Bema,53.0216180874756,18.5958757996559
69503,03,Targowisko,53.0181725655156,18.5999165475369
28301,01,Aleja Solidarności,53.0134196977326,18.6030252277851
02202,02,Ogród Zoobotaniczny,53.009469199115,18.5910773277283
02002,02,Konopnickiej,53.0099581897544,18.5850155353546
26301,01,Mickiewicza,53.011245999979,18.5802036523819
05103,03,Zajezdnia Tramwajowa,53.0131631199552,18.5802492499352
01303,03,Reja,53.0137069339377,18.5706925392151
01201,01,Osiedle Zieleniec,53.0136698192547,18.5661140084267
01001,01,Plac Skalskiego,53.0138255393411,18.5612605512142
27101,01,Szosa Bydgoska,53.0150188367916,18.55608522892
26900,00,Motoarena,53.0152213471473,18.5492630302906
60201,01,Barbarka,53.0542,18.541617
68202,02,Przysiecka,53.058713,18.546752
59902,02,Osiedle Leśne - Polana,53.057907,18.560415
29802,02,Wrzosy I,53.049764,18.573644
29702,02,Zagonowa,53.046845,18.576643
26501,01,Lniana,53.0476534934545,18.585986495018
02401,01,Chabrowa,53.044705904431,18.5887344181538
29502,02,Lisia,53.0418258443275,18.5803323984146
29302,02,Św. Antoniego,53.039353,18.582222
29102,02,Bartkiewiczówny,53.032777,18.587348
48503,03,Żwirki i Wigury,53.0288486745269,18.5903638601303
13301,01,Lelewela,53.024137,18.601512
13101,01,Dekerta,53.020893,18.601907
13001,01,Legionów,53.017537,18.603698
32909,09,Dworzec Autobusowy,53.0153633458736,18.6057657748461
35401,01,Dworzec Wschodni,53.0239219402142,18.6345505714417
35601,01,Plac Daszyńskiego II,53.02207,18.645982
15303,03,Plac Daszyńskiego,53.0213179967599,18.649930357933
15601,01,Rydygiera,53.022866,18.660015
16301,01,Jamontta,53.024716,18.670234
12605,05,Ligi Polskiej,53.0236702648089,18.6890396475792
12701,01,Witosa,53.025815,18.687974
12901,01,Kolankowskiego,53.0285752506821,18.6920115351677
09903,03,Dworzec Główny,53.001094,18.614714
28402,02,Targowisko,53.0182798640754,18.5999675095081
18502,02,Odrodzenia,53.0151003251366,18.601465523243
57902,02,Osiedle Młodych,53.0138683017536,18.5971793532372
09404,04,Kraszewskiego,53.0142200815006,18.5909003019333
00702,02,Sztuki Piękne,53.0138715291037,18.5810860991478
59203,03,Fałata,53.015839,18.580401
58203,03,Od Nowa,53.0182237945605,18.5785903036594
58403,03,Akademiki,53.0175570054632,18.5741686820984
58603,03,Aula UMK,53.0180116171755,18.5695995390415
58804,04,Szosa Okrężna,53.019637208157,18.5657431930304
59000,00,Uniwersytet,53.022352,18.566002
22902,02,Dębowa Góra,53.035887733534,18.6289930343628
22602,02,Batorego,53.037237,18.62125
07303,03,Polna,53.037419,18.612498
42201,01,Wielki Rów,53.0333974186996,18.6114406585693
07201,01,Kozacka,53.030587,18.610488
64101,01,Sczanieckiego,53.026755,18.610926
07001,01,Kościuszki,53.024514,18.611238
33701,01,Sąd Rejonowy,53.0194625508221,18.6131304502487
18303,03,Odrodzenia,53.015121,18.600966
00803,03,Sztuki Piękne,53.013942,18.578943
25501,01,Reja,53.0154726684384,18.5715615749359
08601,01,Świętopełka,53.0235637863107,18.6186718940735
03708,08,Wschodnia,53.029456,18.641508
04003,03,Tofama,53.0349361405691,18.6537230014801
10503,03,Przychodnia,53.036295783067,18.6579769849777
04708,08,Elana A,53.0369401063837,18.6626105010509
04903,03,Elana B,53.0369360743528,18.6677241325378
05501,01,Bukowa,53.036883,18.675832
06201,01,Rubinkowo P&R,53.0272823115021,18.6792777478695
54103,03,Olimpijska P&R,53.027388,18.703394
99040,40,Lubicz Dolny - Tęczowa,53.0339216225678,18.7625281512737
99038,38,Jedwabno - Widokowa,53.0438480343091,18.7660270929337
99938,38,Jedwabno,53.0512018620099,18.7689875811338
99036,36,Młyniec I - Żwirownia,53.0577766362652,18.7900154292583
99034,34,Młyniec I,53.0674912623809,18.8063728809357
99032,32,Młyniec II,53.0653799238798,18.8171848654747
99030,30,Młyniec II - Dolina Drwęcy,53.0571463268397,18.8043451309204
99028,28,Młyniec II - Nad Doliną,53.0503461365618,18.7948179244995
99026,26,Krobia - Radosna,53.0399777312909,18.786261677742
83402,02,Krobia,53.0364663401761,18.7857922911644
99021,21,Mierzynek - Leśna,53.0388843077428,18.8022208213806
99023,23,Mierzynek,53.0407824604052,18.8138374686241
99176,76,Szembekowo,53.0500728490189,18.8363103568554
99175,75,Szembekowo - Skrzyżowanie,53.0504299766405,18.8448813557625
99173,73,Szembekowo - OSP,53.0437722442106,18.8429528474808
99170,70,Szembekowo - Sklep,53.0392374962571,18.8412845134735
99169,69,Szembekowo - Osiedlowa,53.0319070319663,18.8358074426651
99167,67,Brzozówka - Olszynowa,53.028468,18.822745
99165,65,Brzozówka - Wieś,53.02662,18.816846
99163,63,Brzozówka - Sklep,53.024182,18.809123
99157,57,Brzozówka,53.0208242945887,18.8005042076111
99012,12,Lubicz Górny - DK10,53.026713,18.77174
99006,06,Lubicz Dolny - DK10,53.031229,18.757696
99002,02,Lubicz Dolny - Lipowa,53.031936065966,18.7395107746124
55102,02,Odległa,53.0356538694127,18.7206012010574
38202,02,Płocka,53.03421,18.716088
50002,02,Słupska,53.032055,18.704898
60103,03,Kusocińskiego,53.029827,18.701376
11604,04,Kosynierów Kościuszkowskich,53.024061,18.694134
79206,06,Wyszyńskiego,53.0234072947077,18.6829456686974
06200,00,Rubinkowo P&R,53.027585183763,18.6788640171289
35006,06,Plac Daszyńskiego,53.0210017698758,18.6479884386063
63301,01,Rypińska,52.999675,18.654983
63501,01,Lipnowska,52.991824,18.652932
17602,02,Włocławska,52.987765,18.665154
17701,01,Solankowa,52.981609,18.670713
35201,01,Matysiaków,52.9759060457019,18.6776429414749
35301,01,Zdrojowa,52.9779474767188,18.6838281154633
34301,01,Gardzielewskiego,52.9816004930874,18.6853891611099
42900,00,Czerniewice,52.9837321552583,18.6839893700964
06209,09,Rubinkowo P&R,53.0273807149732,18.679183870554
05902,02,Manhattan,53.02767,18.6648
18002,02,Rubinkowo Centrum,53.0288841630405,18.6597928404808
55901,01,Mocarskiego,53.027063,18.655916
56004,04,Rydygiera,53.024315,18.657367
15801,01,Leszczynowa,53.022646,18.654934
35702,02,Plac Daszyńskiego,53.022624,18.64472
65902,02,Galeria Copernicus,53.023266,18.640103
35502,02,Dworzec Wschodni,53.024047,18.63536
02801,01,Garbaty Mostek,53.019305,18.622073
25202,02,Przy Kaszowniku,53.0172617271445,18.6150696873665
29901,01,Lotnisko,53.027269,18.565709
55001,01,Bluszczowa,53.0310537462458,18.5661515593529
54801,01,Orzechowa,53.034619,18.576435
54701,01,Przy Lesie,53.034994,18.583471
99100,00,Obrowo,52.9715999896834,18.8781595230103
99127,27,Kawęczyn,52.9856116725063,18.8643836975098
99129,29,Zawały I,52.996571,18.842542
99131,31,Dobrzejewice - Staw,53.0004129949816,18.8333773612976
99135,35,Dobrzejewice,53.0083733880923,18.8347882032394
70301,01,Głogowo,53.013663,18.821285
11302,02,Olimpijska P&R,53.0269209591248,18.7008011341095
11202,02,Kosynierów Kościuszkowskich,53.0239759857027,18.6945569515228
11702,02,Ligi Polskiej,53.0225506141199,18.6883302032948
11902,02,Wyszyńskiego,53.0230434898697,18.6833077669144
67201,01,Ślaskiego,53.02355733306,18.6757828295231
30601,01,Prejsa,53.0244454526196,18.6744055151939
16404,04,Jamontta,53.0254190558683,18.6721390485764
16002,02,Przy Skarpie,53.0242284659683,18.666484951973
15702,02,Rydygiera,53.0231854628545,18.6596801877022
15402,02,Plac Daszyńskiego,53.0215640390331,18.6491511762142
40904,04,Targowa,53.0180434841877,18.6386181414127
14302,02,Gołębia,53.0153342710698,18.6309478387465
31202,02,Dworzec Miasto,53.0110491191999,18.6194658279419
34102,02,Plac Św. Katarzyny,53.0128468333,18.6125081777573
33202,02,Wały Gen. Sikorskiego,53.012968,18.604114
31501,01,Przy Skarpie,53.023547,18.667369
36601,01,Wianki,53.018611,18.674787
31601,01,Turystyczna,53.015952,18.680192
31801,01,Wieżowa,53.014148,18.683161
40801,01,Księżycowa,53.011443,18.688791
32101,01,Dożynkowa,53.007851,18.695215
59301,01,Dyngusowa,53.008447223067,18.7035966664553
60301,01,Fantazyjna,53.00836,18.707743
59601,01,Skierki,53.005555,18.705028
62801,01,Wodna,53.002601,18.70146
99043,43,Złotoria - Pomorska,52.9982870699018,18.7009057402611
99045,45,Złotoria - Pomorska,52.9967357403645,18.7045240402222
99047,47,Złotoria - Toruńska,52.9942528514104,18.7097597122192
99049,49,Złotoria - Lipowa,52.9916616479677,18.7167656421661
99051,51,Złotoria,52.989276,18.72414
99053,53,Złotoria - Akacjowa,52.988588,18.729105
99055,55,Kopanino - Przy Dębie,52.985702,18.739515
99056,56,Kopanino,52.984400606858,18.744124174118
43801,01,Osiedle Leśne - Polana,53.059093,18.560633
56502,02,Czeremchowa,53.050219,18.583459
56302,02,Słoneczna,53.048215,18.591379
28501,01,Bema,53.0208763271917,18.5965242236853
69001,01,Targowisko,53.0180914863516,18.6002095788717
10301,01,Plac Armii Krajowej,52.998745,18.606552
09900,00,Dworzec Główny,53.000632,18.614442
69604,04,Targowisko,53.0182492073713,18.5998374223709
69804,04,Bema,53.020975955334,18.5967206954956
70006,06,Wybickiego,53.0244494858184,18.5921435058117
70204,04,Żwirki i Wigury,53.0285841228695,18.5908895730972
46302,02,Długa,53.0315199101022,18.5953822731972
70406,06,Koniuchy,53.0337240387811,18.5999728739262
70604,04,Elektryczna,53.0393036179862,18.599853515625
70804,04,Wiśniowieckiego,53.0413227009828,18.5992822051048
71004,04,Freytaga,53.0440818539859,18.6015258729458
71204,04,Hubego,53.0464240121431,18.6032585799694
71404,04,Grasera,53.0504203027936,18.6042255163193
71604,04,Strobanda,53.0540155996563,18.6031579971313
71802,02,Heweliusza,53.0549764443446,18.5975387692451
36901,01,Szubińska,52.976213,18.556124
36802,02,Bliska,52.976292,18.560699
36402,02,Gniewkowska,52.976457,18.566426
55302,02,Stepowa,52.978885,18.571407
23902,02,Kręta,52.981613,18.574313
23702,02,Polmozbyt,52.984922,18.577807
51802,02,Kluczyki Cmentarz,52.987614,18.580662
23602,02,Kluczyki,52.989283,18.582635
50902,02,Poznańska - Komisariat,52.992019,18.586325
23302,02,Parkowa,52.993343,18.590953
55501,01,Drzymały,52.9911643774393,18.594985306263
49202,02,Letnia,52.9909238126938,18.6045581102371
37302,02,63. Pułku Piechoty,52.995248,18.607443
37102,02,Biała,52.995314,18.613572
08201,01,Brązowa,52.992548851444,18.6159564965188
53302,02,Andersa,52.990613,18.617055
51402,02,Dandelskiego,52.991221,18.626243
43302,02,Zakole,52.9952602305893,18.6311495304108
65004,04,Gen. Grota Roweckiego,52.997556,18.634416
43502,02,Telimeny,53.000765,18.641984
21802,02,Grzybowa,53.002736,18.636869
25601,01,Szkoła,53.005976,18.642575
25801,01,Skrzetuskiego,53.005111,18.650276
34701,01,Działki Rudak,53.005342,18.657673
65601,01,Otłoczyńska,53.003625,18.658166
63202,02,Rypińska,53.000611,18.656159
24702,02,Poznańska,52.9717082116508,18.556259572506
67902,02,Poznańska - Osiedle,52.9697844046286,18.5565841197968
14202,02,Poznańska,52.968427511909,18.561125099659
24502,02,Baza Transportu,52.9705145245127,18.5649794340134
24302,02,Osiedle Leśny Zakątek,52.974611,18.567651
24104,04,Gniewkowska,52.97687,18.569279
23102,02,Hallera,52.995107,18.600567
21001,01,Park Tysiąclecia,52.998457,18.61037
21105,05,Dworzec Główny,53.000184,18.617336
16801,01,Strzałowa,52.998611,18.622056
17001,01,Stawki,52.9934843861081,18.6296367645264
17201,01,Stawki Południowe,52.991969,18.633775
51301,01,Zimowa,52.991844,18.642843
17401,01,Ceramika,52.9916987815761,18.6482566595078
35105,05,Plac Daszyńskiego,53.0226474150389,18.6468994617462
18701,01,Barwna,53.035507,18.692219
18901,01,Szczecińska,53.038638,18.695404
50101,01,Suwalska,53.041693,18.698253
19101,01,Cegielnia,53.045936,18.701184
19301,01,Bajeczna,53.0493271441054,18.7050068378448
51600,00,Nad Strugą,53.0507809191759,18.712692496711
42402,02,Traktorowa,53.039842,18.606478
22201,01,Rolnicza,53.039281,18.610104
20803,03,Plac Armii Krajowej,52.998456,18.605284
21301,01,Łódzka,53.0014621980887,18.622550368309
21501,01,Podgórska,53.002541,18.627094
21701,01,Grzybowa,53.002468,18.637796
43601,01,Telimeny,53.000227,18.640781
65105,05,Gen. Grota Roweckiego,52.9972264895541,18.6337459087372
43401,01,Zakole,52.9946354645394,18.6301812529564
80401,01,Trzcinowa,52.9908753766769,18.6337995529175
801001,01,Szuwarów,52.9886553342712,18.6360955238342
79901,01,Bekasa,52.9872166858625,18.6328634619713
79800,00,Łączna,52.9869115118581,18.6296769976616
47401,01,Bielawy,53.03268,18.690571
26202,02,Donimirskiego,53.0294965297306,18.6533682166417
34603,03,Wschodnia,53.0288744843579,18.6437237262726
03303,03,Dworzec Wschodni,53.025218,18.633499
08702,02,Świętopełka,53.0239509795896,18.6188596487045
28602,02,Wybickiego,53.025579,18.5918
36001,01,Żwirki i Wigury,53.028329,18.590199
30701,01,Szpital Bielany,53.0278049765488,18.5847714543343
30801,01,Św. Józefa,53.022488,18.583799
57301,01,Łukasiewicza,53.016907,18.560114
57203,03,Plac Skalskiego,53.014685,18.560551
26901,01,Motoarena,53.0155150258152,18.5482531785965
27002,02,Szosa Bydgoska,53.0149784959698,18.5560999810696
00902,02,Plac Skalskiego,53.0137843905646,18.5612766444683
01102,02,Osiedle Zieleniec,53.0136391592751,18.5661461949348
01404,04,Reja,53.013670626096,18.5706925392151
34001,01,Odrodzenia,53.0150688593583,18.6015366017818
18602,02,Dworzec Autobusowy,53.0159192341197,18.6049953103065
24902,02,Przy Kaszowniku,53.0179732960536,18.6125618219376
33802,02,Sąd Rejonowy,53.0216229276314,18.6130875349045
08403,03,Świętopełka,53.0236250921448,18.6179825663567
08801,01,Szpital Miejski,53.0243833413105,18.6232048273087
03606,06,Dworzec Wschodni,53.0249996106012,18.634067773819
03701,01,Wschodnia,53.0296213496501,18.6420446634293
04101,01,Tofama,53.034585,18.652202
04401,01,Przychodnia,53.0363885210587,18.6576953530312
04701,01,Elana A,53.0370586479227,18.6625635623932
04802,02,Elana B,53.0367167313055,18.6663025617599
16702,02,Rubinkowo P&R,53.026891,18.679424
16502,02,Jamontta,53.025707,18.672528
16104,04,Przy Skarpie,53.024604,18.666122
79802,02,Łączna,52.9868679153958,18.630027025938
80002,02,Bekasa,52.9873539327277,18.6341965198517
80202,02,Szuwarów,52.9885536132307,18.6362457275391
80302,02,Trzcinowa,52.990723610139,18.6340865492821
21602,02,Podgórska,53.0026340471079,18.6270108819008
21402,02,Łódzka,53.0014573556713,18.6221989989281
01602,02,Polna,53.038252109205,18.612280189991
22302,02,Rolnicza,53.0399567662034,18.6071571707726
23001,01,Traktorowa,53.039857,18.603603
47501,01,Wiśniowieckiego,53.041298,18.597725
42501,01,Ugory,53.04415764354,18.5928851366043
29401,01,Lisia,53.0430756140855,18.5798898339272
29601,01,Zagonowa,53.047776036555,18.5763493180275
44701,01,Owsiana,53.049384,18.574742
29800,00,Wrzosy I,53.050156,18.572602
39502,02,Paderewskiego,52.990301,18.590212
55402,02,Drzymały,52.991122399795,18.595165014267
79002,02,Środkowa,52.9936514800421,18.5954613983631
07502,02,Legionów,53.0169261078041,18.6038634181023
13202,02,Dekerta,53.019779,18.602471
13402,02,Lelewela,53.023319,18.60182
13602,02,Osiedle Tysiąclecia,53.029613,18.601501
65203,03,Wiśniowieckiego,53.041148,18.599353
64602,02,Freytaga,53.044057,18.601354
14802,02,Hubego,53.0472133028646,18.6036756634712
06802,02,Grasera,53.0510362000488,18.6038929224014
68502,02,Strobanda,53.0524396712517,18.6044977605343
41904,04,Katarzynka PKP,53.052471,18.616239
39800,00,Forteczna,53.055582603797,18.6171591281891
39801,01,Forteczna,53.055335,18.617033
68301,01,Katarzynka PKP,53.052217,18.614626
68401,01,Rybińskiego,53.052849,18.609025
27901,01,Strobanda,53.051767,18.603498
18401,01,Grasera,53.050133,18.603983
64801,01,Hubego,53.04622,18.60274
64701,01,Freytaga,53.043563,18.600841
47602,02,Wiśniowieckiego,53.04027,18.598541
13701,01,Koniuchy,53.0337159741175,18.5993948578835
13501,01,Osiedle Tysiąclecia,53.029531,18.601236
23201,01,Hallera,52.995262,18.600386
79101,01,Środkowa,52.9936119264639,18.5953916609287
39401,01,Paderewskiego,52.990406,18.59024
23501,01,Kluczyki,52.989952,18.583147
51001,01,Kluczyki Cmentarz,52.986998268945,18.5797569367974
23801,01,Polmozbyt,52.98475,18.577349
24001,01,Kręta,52.981208,18.573612
55201,01,Stepowa,52.978473,18.570722
24203,03,Gniewkowska,52.975993,18.568209
24401,01,Osiedle Leśny Zakątek,52.974105,18.567199
24601,01,Baza Transportu,52.9708456588904,18.5652074217796
14601,01,Poznańska,52.969284,18.562627
67801,01,Poznańska - Osiedle,52.969588950089,18.5570159554482
24700,00,Poznańska,52.9713023975408,18.5559933638587
25305,05,Reja,53.0131760295653,18.5714730620384
01701,01,Przybyszewskiego,53.0098460290248,18.574191480875
01801,01,Park Miejski,53.0098831469963,18.5795974731445
01901,01,Konopnickiej,53.0099178442018,18.5850597918034
02101,01,Ogród Zoobotaniczny,53.0094175562158,18.591126948595
30301,01,Plac Św. Katarzyny,53.0130993786984,18.6115814745426
34201,01,Dworzec Miasto,53.0110321745007,18.6195610463619
14101,01,Gołębia,53.015484,18.631452
14503,03,Targowa,53.018349,18.639361
15201,01,Plac Daszyńskiego,53.0215358047452,18.649195432663
15503,03,Rydygiera,53.023143,18.659682
15901,01,Przy Skarpie,53.024181,18.666531
16203,03,Jamontta,53.025378,18.672195
10603,03,Ślaskiego,53.0235291000766,18.6758968234062
10701,01,Wyszyńskiego,53.023155,18.682265
10901,01,Ligi Polskiej,53.0228740896743,18.6901688575745
11101,01,Kosynierów Kościuszkowskich,53.0241994267797,18.6955949664116
39003,03,Rypińska,53.000292,18.65499
65702,02,Kmicica,53.005308,18.65619
25902,02,Skrzetuskiego,53.005397,18.648946
25702,02,Szkoła,53.006041,18.641503
51501,01,Dandelskiego,52.9912305728725,18.6243259906769
08102,02,Brązowa,52.992458105986,18.6160828778748
54603,03,Kniaziewicza,52.9946629092327,18.6169955134392
37001,01,Biała,52.995464,18.610783
37201,01,63. Pułku Piechoty,52.995326,18.607194
49301,01,Letnia,52.990189,18.603104
23401,01,Parkowa,52.993933,18.593035
50801,01,Poznańska - Komisariat,52.991929,18.5858
36301,01,Gniewkowska,52.976623,18.567407
36701,01,Bliska,52.976455,18.562302
36900,00,Szubińska,52.976405,18.555447
67104,04,Dworzec Autobusowy,53.015366,18.605613
36201,01,Lecha,53.028603,18.600695
28802,02,Żwirki i Wigury,53.0288825499269,18.5910250246525
29001,01,Bartkiewiczówny,53.0327232025099,18.5880839824677
22101,01,Bractwa Kurkowego,53.035355,18.585806
29201,01,Św. Antoniego,53.040285,18.581994
10403,03,Lisia,53.042513,18.580987
02302,02,Chabrowa,53.044877,18.58889
26602,02,Lniana,53.047802,18.586156
27303,03,Szosa Bydgoska,53.0151834269538,18.5561549663544
27501,01,Oczyszczalnia,53.016245,18.541006
57101,01,Centrum Handlowe - Zachód,53.016877,18.534557
27701,01,Starotoruńska,53.01913,18.519987
27800,00,Port Drzewny,53.0200571044592,18.5105506403191
54302,02,Młyn Wiedzy,53.0251964277344,18.6279174685478
56101,01,Zaułek Dworcowy,53.029795,18.62301
55701,01,Towarowa,53.03274,18.626151
54902,02,Orzechowa,53.0349361405691,18.5756707191467
30102,02,Bluszczowa,53.030312,18.56561
30002,02,Lotnisko,53.026437,18.565304
59303,03,Uniwersytet,53.0236283187652,18.5649365186691
48205,05,Rydygiera,53.023781,18.658275
04204,04,Tofama,53.034456,18.651168
03805,05,Wschodnia,53.0302923882126,18.6427339911461
25008,08,Przy Kaszowniku,53.0181023775914,18.611915409565
34901,01,Wschodnia - Pętla,53.0289083597375,18.6438095569611
03902,02,Wschodnia,53.0295907010049,18.6418998241425
03405,05,Dworzec Wschodni,53.0249350801981,18.633898794651
08902,02,Szpital Miejski,53.024222012817,18.6218878626823
08504,04,Świętopełka,53.0237218906527,18.6184224486351
33901,01,Sąd Rejonowy,53.0216229276314,18.6130258440971
25001,01,Przy Kaszowniku,53.0179926583089,18.6124411225319
30201,01,Dworzec Autobusowy,53.0165638618847,18.6066287755966
04602,02,Elana A,53.0370909040674,18.6625662446022
14002,02,Przychodnia,53.0364163424173,18.6576410382986
04302,02,Tofama,53.034972,18.653099
69105,05,Koniuchy,53.0326296501484,18.6008781194687
31005,05,Od Nowa,53.017837,18.580203
06301,01,Fałata,53.0151108137243,18.581303358078
54403,03,Strzałowa,52.998577,18.620984
08002,02,Kniaziewicza,52.995013,18.618732
07702,02,Plebiscytowa,52.9959350323446,18.6235803365707
67303,03,Starotoruńska,53.0199030247764,18.5203528404236
99201,01,Przysiek,53.030988,18.500451
99203,03,Rozgarty,53.037812,18.481378
99801,01,Górsk - Parking,53.0473132732833,18.4596410393715
99811,11,Górsk - Prosta,53.0383424238494,18.4551912546158
99821,21,Górsk - Kościół,53.0290519265274,18.451079428196
99812,12,Górsk - Prosta,53.038600464648,18.4553951025009
99211,11,Górsk III,53.0485515973081,18.4588471055031
99213,13,Górsk - Leśniczanka,53.0521325398751,18.4451812505722
99215,15,Górsk - Ośrodek Zdrowia,53.0588679686319,18.4248125553131
99217,17,Zarośle Cienkie - Skrzyżowanie,53.0710561272799,18.3926475048065
99219,19,Pędzewo I,53.0835952734836,18.3614534139633
99221,21,Pędzewo II,53.0889275736204,18.3433485031128
99223,23,Zławieś Wielka,53.0945475216595,18.3299133181572
99225,25,Zławieś Wielka - Urząd Gminy,53.0961355998111,18.3310264348984
06402,02,Akademiki,53.0173456315718,18.5752522945404
67502,02,Gałczyńskiego,53.0161951585722,18.5873007774353
63002,02,Arena Toruń,53.018442,18.591941
15609,09,Rydygiera,53.023425,18.659512
48604,04,Plac Daszyńskiego,53.02146,18.646341
14702,02,Targowa,53.0171778225542,18.6365246772766
13904,04,Gołębia,53.015611,18.631367
31304,04,Dworzec Miasto,53.0111579957534,18.6192821336731
46401,01,Lotników,53.028695,18.608163
39301,01,Gronowo,53.102805,18.790478
39202,02,Brzeźno,53.08839,18.772686
63602,02,Rogówko,53.07056,18.756067
20302,02,Rogówko - Ogrodnik,53.065409,18.741564
20102,02,Grębocin Ośrodek Zdrowia,53.061147,18.727723
09003,03,Grębocin,53.058481,18.716053
61501,01,Kolonia Papowska,53.0668151618126,18.6922764033079
19802,02,Grębocin,53.057149,18.716862
19602,02,Kresowa,53.053272,18.710147
62602,02,Wapienna,53.0527536523778,18.6958826333284
33302,02,Meprozet,53.0524227428076,18.7020885944366
15002,02,Nad Rzeczką,53.051463,18.70499
19402,02,Bajeczna,53.048949,18.704145
19202,02,Cegielnia,53.046493,18.700978
50202,02,Suwalska,53.040005,18.696256
19002,02,Szczecińska,53.037553,18.693772
18802,02,Barwna,53.034468,18.690584
20504,04,Plac Św. Katarzyny,53.0136601371583,18.6138814687729
53001,01,Kołowa,53.043872,18.685644
53101,01,Na Zapleczu,53.040036,18.686725
05301,01,Katarzynki,53.0374457200663,18.6876341700554
05402,02,Chrzanowskiego,53.036457,18.685114
05602,02,Bukowa,53.036168,18.674521
67002,02,Niesiołowskiego,53.0303214232994,18.6774551868439
03208,08,Dworzec Wschodni,53.025249261689,18.6333341896534
68704,04,Hallera,52.9951301286915,18.6022057341343
63402,02,Lipnowska,52.993011,18.65212
14901,01,Nad Rzeczką,53.051685,18.70472
33401,01,Meprozet,53.052471,18.702461
46501,01,Lotników,53.028839802394,18.6092868447304
32502,02,Drwęca,53.001748,18.70096
62902,02,Wodna,53.0032215737628,18.7024855613709
59702,02,Skierki,53.005578,18.705241
59502,02,Fantazyjna,53.008292,18.708034
59402,02,Dyngusowa,53.008657,18.704245
67602,02,Balladyny,53.008159,18.697228
32102,02,Dożynkowa,53.008234,18.693562
40502,02,Księżycowa,53.012045,18.688134
31902,02,Wieżowa,53.014478,18.682565
31702,02,Turystyczna,53.016483,18.680746
36502,02,Wianki,53.0187074421524,18.6754810810089
99054,54,Kopanino - Przy Dębie,52.9858635698958,18.7393391132355
99052,52,Złotoria - Akacjowa,52.988756,18.728826
99050,50,Złotoria,52.989507,18.72357
99048,48,Złotoria - Lipowa,52.991728,18.716834
99046,46,Złotoria - Toruńska,52.995261,18.708535
99044,44,Złotoria - Pomorska,52.998216,18.701301
27801,01,Port Drzewny,53.0198308183857,18.5109107268803
27602,02,Starotoruńska,53.018941,18.52151
57002,02,Centrum Handlowe - Zachód,53.016337,18.536763
27402,02,Oczyszczalnia,53.015914,18.541204
27204,04,Szosa Bydgoska,53.014787,18.556483
57402,02,Łukasiewicza,53.017647,18.561104
28901,01,Żwirki i Wigury,53.028213,18.588999
63703,03,Wybickiego,53.024768,18.593476
63902,02,Popiela,53.026259,18.602842
47400,00,Bielawy,53.032989,18.691247
99125,25,Obrowo - Osiedle,52.963123,18.863043
99123,23,Kolonia Obrowska,52.95513,18.848132
99121,21,Sąsieczno,52.9507727178671,18.8433766365051
99119,19,Osiek - Siciny I,52.940056,18.832784
70102,02,Osiek - Jesionek,52.9360917944664,18.8280665874481
99117,17,Osiek - Siciny II,52.93314,18.815538
99115,15,Osiek - Szkoła,52.9263168359386,18.8081082701683
99113,13,Osiek,52.928249,18.80187
99111,11,Dzikowo Skrzyżowanie,52.9318529088771,18.7852504849434
99109,09,Dzikowo,52.9308424343686,18.7678322196007
99107,07,Silno IV,52.933244,18.748208
99105,05,Silno III,52.9409073242959,18.7342777848244
99103,03,Silno II,52.9472690152609,18.7288865447044
99101,01,Silno I,52.9529252209745,18.7258958816528
99065,65,Grabowiec - Wieś,52.9661416975028,18.7218269705772
99063,63,Grabowiec II,52.971511,18.71783
99061,61,Grabowiec I,52.977755,18.710607
99059,59,Złotoria II,52.981732,18.707
99057,57,Złotoria I,52.9873297127243,18.7037354707718
67703,03,Drwęca,53.002533,18.699675
32302,02,Kogucia,53.0045192691377,18.697657585144
50603,03,Księżycowa,53.01252,18.689177
51601,01,Nad Strugą,53.0510684457359,18.7123560905457
99098,98,Lubicz Górny - Osiedle,53.0237057575832,18.7661960721016
99008,08,Lubicz Górny - Bankowa,53.024571,18.770125
38002,02,Kusocińskiego,53.0306440340593,18.6984971165657
49802,02,Kolankowskiego,53.029781,18.694116
19501,01,Kresowa,53.052726,18.709867
48301,01,Grębocin - Toruńska,53.054336,18.712019
19701,01,Grębocin,53.058251,18.719534
20001,01,Grębocin Ośrodek Zdrowia,53.061268,18.728774
20201,01,Rogówko - Ogrodnik,53.065519,18.742374
20401,01,Rogówko,53.07074,18.757094
39101,01,Brzeźno,53.087895,18.772619
99319,19,Kąkol,52.9931372807005,18.4560951590538
99321,21,Kąkol - Wiadukt,52.9940655796137,18.4474718570709
99323,23,Jarki,52.9893593018908,18.4452080726624
99325,25,Cierpice II,52.9878964572436,18.4525814652443
99327,27,Cierpice - Nadleśnictwo,52.9864803893523,18.4650564193726
99329,29,Cierpice - Andrewex,52.9859588383974,18.4721750020981
99331,31,Cierpice - Pętla,52.9838741864033,18.4863102436066
99333,33,Cierpiszewo,52.9796819712747,18.4998339414597
99335,35,Cierpiszewo - Leśna,52.9824866502205,18.4986101835966
99337,37,Cierpice - Szkoła,52.9864626276587,18.4866508841515
99339,39,Cierpice - Ogrodowa,52.9877866611654,18.4830540418625
99341,41,Cierpice - Ogrodowa II,52.9945951046646,18.4802001714706
99312,12,Wielka Nieszawka - Wiślana,53.0006712627274,18.4811925888062
99310,10,Wielka Nieszawka - RSP,52.9981724574515,18.4949362277985
99308,08,Wielka Nieszawka - Urząd Gminy,52.9977462901789,18.5066628456116
99306,06,Mała Nieszawka - Kościół,52.992651328443,18.5240060091019
99304,04,Mała Nieszawka - Stadion,52.9898517494832,18.5349065065384
99302,02,Mała Nieszawka - Szkoła,52.9898646660658,18.5492885112762
91502,02,Zagrodowa,52.9913661924674,18.5687747597694
91202,02,Kluczyki,52.9934230374483,18.5776287317276
91302,02,Wiślana,52.9961513541202,18.5891354084015
90406,06,Plac Armii Krajowej,52.9985953920256,18.6038044095039
20606,06,Plac Św. Katarzyny,53.0143620835218,18.6131706833839
48802,02,Koniuchy,53.0334022575336,18.6018289625645
47101,01,Przychodnia,53.0368554336563,18.6566680669785
00050,50,Płaska,53.0433739408645,18.6672896146774
00051,51,Inżynierów Elany,53.0397035716492,18.6744430661201
99013,13,Krobia - Kalinowa,53.0296681291192,18.7734997272491
99015,15,Krobia - Osiedlowa,53.033378,18.778143
99017,17,Krobia - Poligraficzna,53.037142,18.782816
99931,31,Młyniec II - Topolowa,53.0595917469344,18.8157552480698
99031,31,Młyniec II,53.0651784548734,18.817238509655
99903,03,Młyniec I - Polna,53.0704759704564,18.8120269775391
99921,21,Brzezinko,53.0777612060037,18.786795437336
99910,10,Rogówko - Lubicka,53.0666145053704,18.7675975263119
99037,37,Jedwabno,53.0512457965838,18.7688300013542
99039,39,Jedwabno - Widokowa,53.0439157615183,18.7659573554993
99041,41,Lubicz Dolny - Tęczowa,53.0339821072195,18.7625375390053
66503,03,Osiedle Leśne - Polana,53.057696,18.560858
68101,01,Przysiecka,53.058829,18.546761
07601,01,Cmentarz Centralny,53.042187,18.618051
79404,04,Okólna,52.9865498213574,18.6165744066238
79602,02,Lilii Wodnych,52.9868259335757,18.6220219731331
06210,10,Rubinkowo P&R,53.027376278756,18.6795848608017
99911,11,Rogówko - Lubicka,53.0666410984466,18.7676109373569
99920,20,Brzezinko,53.0775001770506,18.7880118191242
99905,05,Młyniec I - Polna,53.0704147312246,18.812010884285
99930,30,Młyniec II - Topolowa,53.0595627315571,18.8156479597092
99024,24,Mierzynek,53.0407808477367,18.8136550784111
99022,22,Mierzynek - Leśna,53.0391987908077,18.8052302598953
99020,20,Krobia,53.0365425463259,18.7862858176231
99018,18,Krobia - Poligraficzna,53.0370344557984,18.7825655937195
99016,16,Krobia - Osiedlowa,53.03351,18.778142
99014,14,Krobia - Kalinowa,53.0301939913843,18.7739503383636
65502,02,Bema,53.021896,18.595931
99315,15,Cierpice - Skrzyżowanie,52.9912951536851,18.4749215841293
99317,17,Cierpice - Stacja Paliw,52.9942560802273,18.4675870835781
80001,01,Lubicz Górny - Rzemieślnicza,53.0229926698809,18.7787434458733
80404,04,Nowa Wieś I,53.0145121533318,18.753308057785
80102,02,Nowa Wieś - Widokowa,53.0082700996097,18.7491345405579
80203,03,Nowa Wieś - Orla,53.0025501140759,18.7415492534637
80303,03,Nowa Wieś II,52.9986954751736,18.7394893169403
66704,04,Sczanieckiego,53.027368,18.612217
66902,02,Urząd Celny,53.03051,18.623817
66102,02,Chrobrego,53.03159,18.631316
37704,04,Drzymały,52.990414,18.594723
10202,02,Plac Armii Krajowej,52.998933,18.606742
56903,03,Lniana,53.048061,18.588403
56401,01,Słoneczna,53.0488498861894,18.5915172100067
56601,01,Czeremchowa,53.0505460626342,18.5854339599609
56701,01,Brzoskwiniowa,53.049549,18.578442
43800,00,Osiedle Leśne - Polana,53.0591686040802,18.5613772273064
53601,01,Rudacka,53.0032473989268,18.6314928531647
65800,00,Gliniecka,53.0036944946298,18.6675162613392
99010,10,Lubicz Górny - Osiedle,53.0236682677714,18.7662068843114
62500,00,Krobia,53.036482468473,18.7862791121006
48101,01,Kanałowa,53.036827,18.638796
53802,02,Hutowo,53.041715,18.652891
42303,03,Wielki Rów,53.034294,18.611009
48703,03,Koniuchy,53.032773,18.599073
79501,01,Lilii Wodnych,52.9868485391762,18.6209464073181
08301,01,Okólna,52.986379,18.616102
41101,01,Cmentarz Centralny - II Brama,53.044221,18.62275
00303,03,Barwna,53.035394,18.690523
24801,01,Glinki,52.964902,18.554652
37803,03,Drzymały,52.990312,18.594325
99205,05,Rozgarty - Kwiatowa,53.040706,18.479291
99206,06,Rozgarty - Stara Szkoła,53.043875,18.489532
41301,01,Fabryczna,53.029881,18.630437
66204,04,Chrobrego,53.0327828823586,18.630114197731
31403,03,Dworzec Miasto,53.0108659547178,18.6192713677883
56803,03,Gołębia,53.015382,18.631453
14401,01,Targowa,53.0170681009206,18.6369431018829
65802,02,Gliniecka,53.003846,18.667205
26002,02,Działki Rudak,53.005518,18.659779
53702,02,Rudacka,53.0033200321178,18.6312836408615
30401,01,Niesiołowskiego,53.0306359688197,18.674421608448
52703,03,Katarzynki,53.037769,18.68848
52801,01,Na Zapleczu,53.040245,18.691108
52901,01,Osiedle Pancernych,53.043525,18.691342
54002,02,Motoarena,53.0156731596547,18.5487453639507
60004,04,Kusocińskiego,53.0317073248897,18.7004352305997
42602,02,Liliowa,53.0435061715332,18.5888323187828
99316,16,Cierpice - Stacja Paliw,52.9942447793669,18.4676809608936
99314,14,Cierpice - Skrzyżowanie,52.9915922241793,18.4757423400879
53901,01,Hutowo,53.041889,18.652048
17804,04,Fort V,53.0420967652347,18.6096274852753
51702,02,Forteczna,53.048427,18.616452
67404,04,Lisia,53.0424725039129,18.5787552595139
41801,01,Krucza,53.0425095938194,18.5761079192162
41501,01,Wrzosowa,53.042063,18.572211
41601,01,Jastrzębia,53.0406147425503,18.573911190033
41701,01,Myśliwska,53.040638,18.580161
99011,11,Lubicz Górny - DK10,53.025443,18.775086
99158,58,Brzozówka,53.020183,18.801782
70202,02,Głogowo,53.013958,18.82006
99136,36,Dobrzejewice,53.0079368311799,18.8353085517883
99132,32,Dobrzejewice - Staw,53.000302,18.833428
99130,30,Zawały I,52.9960803232089,18.8430574536324
99128,28,Kawęczyn,52.984841,18.865215
69401,01,Gminna,53.0403196220484,18.7168139219284
69302,02,Przelot,53.0378843976284,18.7251824140549
12301,01,Kociewska,53.042001,18.636349
15103,03,Poznańska - Osiedle,52.967731,18.5592
50506,06,Ligi Polskiej,53.021948,18.689185
59803,03,Dożynkowa,53.007106,18.694828
32201,01,Kogucia,53.004271,18.6977
32401,01,Drwęca,53.0022127662052,18.6997953057289
80301,01,Nowa Wieś II,52.9989085546515,18.7399184703827
80201,01,Nowa Wieś - Orla,53.0045128130384,18.7437164783478
80101,01,Nowa Wieś - Sokola,53.0098774986114,18.750776052475
80403,03,Nowa Wieś I,53.0149187914843,18.7537050247192
39703,03,Katarzynka PKP,53.0513844521928,18.6155927181244
51101,01,Forteczna,53.047813,18.616118
64402,02,Fort V,53.041849,18.608501
40702,02,Elektryczna,53.0393136549451,18.5990259470236
54503,03,Letnia,52.990141,18.604702
49402,02,Gen. Orlicza-Dreszera,52.990314,18.609176
68603,03,Hallera,52.9952049291047,18.6022426814873
32500,00,Drwęca,53.001609084489,18.7010210752487
62701,01,Chrzanowskiego,53.035727,18.686592
99207,07,Rozgarty - Leśna,53.046154,18.493574
99208,08,Rozgarty - Wróblowa,53.0416258778039,18.4991928935051
99209,09,Przysiek - Błotka,53.0367151184848,18.5048148036003
99210,10,Przysiek - Szkoła,53.032194,18.502405
99202,02,Przysiek,53.030476,18.501315
07404,04,Polna,53.038582,18.613513
66303,03,Chrobrego,53.031215,18.629962
41402,02,Fabryczna,53.028969,18.630325
51903,03,Pilska,53.037532,18.696135
52102,02,Ostrołęcka,53.035682,18.701053
53402,02,Krynicka,53.036294,18.705079
52303,03,Chełmska,53.040121,18.698745
40301,01,Ceramiczna,53.046755,18.700541
40401,01,EC Grębocin,53.0457096875497,18.6968502402306
99226,26,Zławieś Wielka - Urząd Gminy,53.0965511318833,18.331503868103
99224,24,Zławieś Wielka,53.094128748892,18.3303505182266
99222,22,Pędzewo II,53.0882767784246,18.3460414409637
99220,20,Pędzewo I,53.0833890564647,18.361930847168
99218,18,Zarośle Cienkie - Skrzyżowanie,53.0707241496097,18.3933180570602
99216,16,Górsk - Ośrodek Zdrowia,53.0585649130809,18.4255260229111
99214,14,Górsk - Leśniczanka,53.0518229879265,18.4470105171204
99212,12,Górsk III,53.0476809044415,18.4604296088219
99204,04,Rozgarty,53.0372876660274,18.4819060564041
68905,05,Osiedle Młodych,53.0133115802388,18.5980202257633
99058,58,Złotoria I,52.986972,18.703776
99060,60,Złotoria II,52.9817232239068,18.7068843841553
99062,62,Grabowiec I,52.978317,18.709887
99064,64,Grabowiec II,52.970841,18.718443
99066,66,Grabowiec - Wieś,52.9660948491591,18.7218350172043
99102,02,Silno I,52.951637,18.72642
99104,04,Silno II,52.947017,18.729015
99106,06,Silno III,52.941201,18.733745
99108,08,Silno IV,52.932957,18.748789
99110,10,Dzikowo,52.930663,18.768522
99112,12,Dzikowo Skrzyżowanie,52.931708,18.784793
99114,14,Osiek,52.927688,18.803183
99116,16,Osiek - Szkoła,52.9263369134652,18.8084112447584
69201,01,Przelot,53.0382569474943,18.7244126200676
40601,01,Elektryczna,53.0399909934778,18.6006781877649
99090,90,Kopanino,52.9845249444951,18.7445023655891
99972,72,Kopanino - Słoneczna,52.9812839751547,18.7510657310486
99961,61,Obory,52.9767038949375,18.7700973451138
48204,04,Barwna,53.034650219036,18.6923114459514
41905,05,Katarzynka PKP,53.0511716317726,18.6173415184021
77610,10,Papowo Toruńskie - Osieki,53.0709723273328,18.624524474144
70010,10,Papowo Toruńskie - Daglezjowa,53.0695170830171,18.6456683278084
70011,11,Papowo Toruńskie,53.0787811372958,18.6580091714859
88802,02,Papowo Toruńskie - Wybudowanie,53.083347168512,18.6439490318298
77723,23,Łysomice - Warszawska,53.0859828079696,18.6295080184937
77722,22,Łysomice,53.084464,18.619518
99118,18,Osiek - Siciny II,52.933253,18.816222
70101,01,Osiek - Jesionek,52.9362211208332,18.8285493850708
99120,20,Osiek - Siciny I,52.9404547293382,18.8328757882118
99122,22,Sąsieczno,52.9514061983742,18.844438791275
99124,24,Kolonia Obrowska,52.955553,18.848774
99126,26,Obrowo - Osiedle,52.963125,18.863222
77711,11,Papowo Toruńskie - Osieki,53.070654,18.617738
77712,12,Łysomice,53.084834,18.619768
77713,13,Łysomice - Warszawska,53.0860601348076,18.6282956600189
89901,01,Papowo Toruńskie - Wybudowanie,53.0833342799029,18.643798828125
88202,02,Papowo Toruńskie - Kościół,53.0791243314918,18.6586931347847
88401,01,Papowo Toruńskie - Sołectwo,53.0866658568992,18.6678957939148
88601,01,Gostkowo I,53.094080428695,18.6777073144913
77714,14,Gostkowo - Kościół,53.100308454796,18.6903592944145
88501,01,Gostkowo III,53.1054502855657,18.7078580260277
77725,25,Turzno - Pałac,53.109583,18.72647
89101,01,Turzno - Kasztanowa,53.1174626717306,18.7320113182068
87801,01,Kamionki Małe II,53.1219618237508,18.7371933460236
77716,16,Kamionki Małe III,53.1305000641459,18.741409778595
61000,00,Kamionki Jezioro,53.134097,18.767902
64501,01,Fort V,53.0411646611562,18.6089837551117
99971,71,Kopanino - Słoneczna,52.9805637267275,18.7517362833023
99091,91,Kopanino,52.9846008387211,18.7444648146629
00609,09,Sztuki Piękne,53.0139731905103,18.5810646414757
77721,21,Papowo Toruńskie - Osieki,53.070661,18.617508
41906,06,Katarzynka PKP,53.0511780808916,18.6170384287834
99161,61,Brzozówka,53.0214277075862,18.8031515479088
99162,62,Brzozówka - Sklep,53.0241816805993,18.8093045353889
99164,64,Brzozówka - Wieś,53.026462,18.816617
99166,66,Brzozówka - Olszynowa,53.028417970694,18.8228014111519
99168,68,Szembekowo - Osiedlowa,53.0317554096502,18.8358020782471
99171,71,Szembekowo - Sklep,53.0391665362399,18.8412925601006
99172,72,Szembekowo - OSP,53.043611,18.843014
99174,74,Szembekowo - Skrzyżowanie,53.050421,18.844947
99177,77,Szembekowo,53.0501139631848,18.8359844684601
99025,25,Krobia - Radosna,53.0399519281048,18.7863716483116
99027,27,Młyniec II - Nad Doliną,53.0501913544494,18.7948930263519
99029,29,Młyniec II - Dolina Drwęcy,53.0571559991767,18.8044792413712
99033,33,Młyniec I,53.0675041557332,18.8063192367554
99035,35,Młyniec I - Żwirownia,53.0578129069873,18.7900301814079
19904,04,Grębocin - Pętla,53.057688,18.718947
77726,26,Kamionki Małe III,53.1305708737502,18.7413668632507
89902,02,Kamionki Małe II,53.1220213800292,18.7372255325317
88902,02,Turzno - Kasztanowa,53.1174819893111,18.7318933010101
77715,15,Turzno - Pałac,53.1096818104422,18.7264886498451
88702,02,Gostkowo III,53.1055098647189,18.7078982591629
77724,24,Gostkowo - Kościół,53.1003664306327,18.6902976036072
88602,02,Gostkowo I,53.0941206955296,18.6776053905487
88502,02,Papowo Toruńskie - Sołectwo,53.086814064198,18.667927980423
88101,01,Papowo Toruńskie - Kościół,53.079100162976,18.6585268378258
52404,04,Chełmska,53.040238,18.698399
522001,01,Ostrołęcka,53.0356837073195,18.7017130851746
52004,04,Pilska,53.037907,18.69544
49501,01,Gen. Orlicza-Dreszera,52.990473,18.607598
99138,38,Dobrzejewice - Cmentarz,53.0037187054563,18.8485962152481
99140,40,Łążyn II,53.0014460566955,18.8643729686737
99142,42,Łążyn I,53.0002096080443,18.8907873630524
99144,44,Zębowo III,53.0041125329936,18.9059042930603
99146,46,Zębowo - Szkoła,53.0065399807833,18.9227056503296
99148,48,Zębowo II,52.99533933469,18.9204847812653
99150,50,Zębowo I,52.9911934388615,18.9165607094765
99152,52,Kazimierzewo,52.9842294401746,18.9138114452362
99154,54,Bartoszewo,52.9754570471444,18.9107751846313
99156,56,Zębówiec,52.9694500314492,18.9050607383251
99155,55,Zębówiec,52.969193192323,18.9046543836594
99153,53,Bartoszewo,52.9753019961992,18.9108610153198
99151,51,Kazimierzewo,52.9841842262205,18.9138543605804
99149,49,Zębowo I,52.9912111986098,18.9166653156281
99147,47,Zębowo II,52.9952699168135,18.9205008745193
99145,45,Zębowo - Szkoła,53.0064237762873,18.9227700233459
99143,43,Zębowo III,53.0040156904897,18.9055502414703
99141,41,Łążyn I,53.0002386633797,18.8908624649048
99139,39,Łążyn II,53.0014912525811,18.8641583919525
99137,37,Dobrzejewice - Cmentarz,53.0037961800098,18.8485157489777
08302,02,Okólna,52.986381,18.616051
